{
  "categories": [
    {
      "name": "Historic Castles",
      "icon": "🏰",
      "color": "#8B4513",
      "locations": [
        {
          "name": "Edinburgh Castle",
          "description": "Scotland's most famous castle, home to the Stone of Destiny and Crown Jewels",
          "coordinates": {
            "lat": 55.9486,
            "lng": -3.1999
          },
          "clan_connections": [
            "Stewart",
            "Bruce"
          ],
          "historical_period": "12th century onwards",
          "visitor_info": "Open daily, advance booking recommended"
        },
        {
          "name": "Stirling Castle",
          "description": "Strategic Highland fortress, scene of many battles including Bannockburn nearby",
          "coordinates": {
            "lat": 56.1219,
            "lng": -3.9456
          },
          "clan_connections": [
            "Stewart",
            "Bruce",
            "Wallace"
          ],
          "historical_period": "12th century onwards",
          "visitor_info": "Historic Scotland site with guided tours"
        },
        {
          "name": "Dunvegan Castle",
          "description": "Seat of Clan MacLeod for over 800 years, oldest continuously inhabited castle",
          "coordinates": {
            "lat": 57.4458,
            "lng": -6.5889
          },
          "clan_connections": [
            "MacLeod"
          ],
          "historical_period": "13th century onwards",
          "visitor_info": "Family-owned castle with gardens and boat trips"
        },
        {
          "name": "Inveraray Castle",
          "description": "Seat of the Duke of Argyll, magnificent 18th-century Gothic Revival castle",
          "coordinates": {
            "lat": 56.2319,
            "lng": -5.0733
          },
          "clan_connections": [
            "Campbell"
          ],
          "historical_period": "15th century (current castle 18th century)",
          "visitor_info": "Elegant interiors and beautiful grounds"
        },
        {
          "name": "Duart Castle",
          "description": "Clan Maclean's ancestral seat on the Isle of Mull",
          "coordinates": {
            "lat": 56.4564,
            "lng": -5.6547
          },
          "clan_connections": [
            "Maclean"
          ],
          "historical_period": "13th century",
          "visitor_info": "Restored clan castle with stunning views"
        }
      ]
    },
    {
      "name": "Whisky Distilleries",
      "icon": "🥃",
      "color": "#B8860B",
      "locations": [
        {
          "name": "Glenfiddich Distillery",
          "description": "World-famous single malt whisky distillery in Speyside",
          "coordinates": {
            "lat": 57.4731,
            "lng": -3.1292
          },
          "region": "Speyside",
          "established": "1887",
          "visitor_info": "Tours and tastings available daily"
        },
        {
          "name": "Laphroaig Distillery",
          "description": "Iconic Islay whisky with distinctive peated flavor",
          "coordinates": {
            "lat": 55.6275,
            "lng": -6.1508
          },
          "region": "Islay",
          "established": "1815",
          "visitor_info": "Island distillery with coastal location"
        },
        {
          "name": "Talisker Distillery",
          "description": "Only distillery on the Isle of Skye, producing maritime single malt",
          "coordinates": {
            "lat": 57.2992,
            "lng": -6.3631
          },
          "region": "Islands",
          "established": "1830",
          "visitor_info": "Dramatic island setting with mountain views"
        },
        {
          "name": "The Macallan Distillery",
          "description": "Premium Speyside whisky known for sherry cask maturation",
          "coordinates": {
            "lat": 57.5156,
            "lng": -3.2325
          },
          "region": "Speyside",
          "established": "1824",
          "visitor_info": "Modern visitor center with premium experiences"
        }
      ]
    },
    {
      "name": "Historic Battlefields",
      "icon": "⚔️",
      "color": "#800000",
      "locations": [
        {
          "name": "Culloden Battlefield",
          "description": "Site of the final Jacobite battle in 1746, ending Highland clan warfare",
          "coordinates": {
            "lat": 57.5036,
            "lng": -4.0953
          },
          "battle_date": "16 April 1746",
          "significance": "End of the Jacobite cause and Highland way of life",
          "clan_connections": [
            "Stewart",
            "Cameron",
            "Fraser",
            "MacPherson"
          ],
          "visitor_info": "Comprehensive visitor center and battlefield walks"
        },
        {
          "name": "Bannockburn",
          "description": "Robert the Bruce's greatest victory, securing Scottish independence",
          "coordinates": {
            "lat": 56.0969,
            "lng": -3.9139
          },
          "battle_date": "23-24 June 1314",
          "significance": "Decisive victory for Scottish independence",
          "clan_connections": [
            "Bruce",
            "Stewart",
            "Douglas"
          ],
          "visitor_info": "Heritage center with interactive battle experience"
        },
        {
          "name": "Flodden Field",
          "description": "Tragic defeat where James IV and the flower of Scottish nobility died",
          "coordinates": {
            "lat": 55.6339,
            "lng": -2.1667
          },
          "battle_date": "9 September 1513",
          "significance": "Devastating loss for Scottish nobility",
          "clan_connections": [
            "Stewart",
            "Douglas",
            "Graham"
          ],
          "visitor_info": "Memorial and battlefield walks"
        }
      ]
    },
    {
      "name": "Highland Games",
      "icon": "🏋️",
      "color": "#228B22",
      "locations": [
        {
          "name": "Braemar Gathering",
          "description": "Royal Highland Games attended by the Royal Family",
          "coordinates": {
            "lat": 57.0042,
            "lng": -3.3958
          },
          "date": "First Saturday in September",
          "established": "1832",
          "special_features": [
            "Royal patronage",
            "Traditional heavy events",
            "Pipe band competitions"
          ]
        },
        {
          "name": "Cowal Highland Gathering",
          "description": "World's largest Highland Games in Dunoon",
          "coordinates": {
            "lat": 55.9508,
            "lng": -4.9267
          },
          "date": "Last weekend in August",
          "established": "1894",
          "special_features": [
            "World Championship Highland Dancing",
            "Massed pipe bands"
          ]
        },
        {
          "name": "Lonach Highland Games",
          "description": "Traditional games in Royal Deeside",
          "coordinates": {
            "lat": 57.1667,
            "lng": -3.0833
          },
          "date": "Third Saturday in August",
          "established": "1823",
          "special_features": [
            "Lonach Highlanders march",
            "Traditional atmosphere"
          ]
        }
      ]
    },
    {
      "name": "Golf Courses",
      "icon": "⛳",
      "color": "#006400",
      "locations": [
        {
          "name": "St Andrews Old Course",
          "description": "The Home of Golf - most famous golf course in the world",
          "coordinates": {
            "lat": 56.3472,
            "lng": -2.805
          },
          "established": "15th century",
          "significance": "Birthplace of golf",
          "visitor_info": "Public course, ballot system for tee times"
        },
        {
          "name": "Royal Dornoch",
          "description": "Championship links course in the Scottish Highlands",
          "coordinates": {
            "lat": 57.8792,
            "lng": -4.0289
          },
          "established": "1616",
          "significance": "Third oldest golf course in the world",
          "visitor_info": "Highland links golf at its finest"
        },
        {
          "name": "Turnberry",
          "description": "Coastal championship course with lighthouse views",
          "coordinates": {
            "lat": 55.3139,
            "lng": -4.8458
          },
          "established": "1906",
          "significance": "Open Championship venue",
          "visitor_info": "Luxury resort golf"
        }
      ]
    },
    {
      "name": "Myths & Legends",
      "icon": "🐉",
      "color": "#4B0082",
      "locations": [
        {
          "name": "Loch Ness",
          "description": "Home of the famous Loch Ness Monster",
          "coordinates": {
            "lat": 57.273,
            "lng": -4.4244
          },
          "legend": "Nessie - Scotland's most famous mythical creature",
          "visitor_info": "Boat trips, Loch Ness Centre, and monster spotting"
        },
        {
          "name": "Ben MacDhui",
          "description": "Haunted by the Grey Man of the mountain",
          "coordinates": {
            "lat": 57.07,
            "lng": -3.6689
          },
          "legend": "Am Fear Liath Mòr - The Big Grey Man",
          "visitor_info": "Challenging mountain hike, second highest in Scotland"
        },
        {
          "name": "Rosslyn Chapel",
          "description": "Mysterious medieval chapel linked to the Knights Templar",
          "coordinates": {
            "lat": 55.8553,
            "lng": -3.1589
          },
          "legend": "Holy Grail, Apprentice Pillar, Templar connections",
          "clan_connections": [
            "Sinclair"
          ],
          "visitor_info": "Intricate stone carvings and guided tours"
        }
      ]
    }
  ]
}